stop_id,stop_code,stop_name,stop_desc,stop_lat,stop_lon,stop_timezone,zone_id,stop_url,location_type,parent_station
4,001,"Castle Dome Avenue @ Yuma Palms Parkway",,32.7042181259898,-114.60726794512595,US/Arizona,,http://www.ycipta.org/stops/001,0,
30,002,"12th Street Behind Harkins Theatre",,32.70574384570291,-114.60180294425811,US/Arizona,,http://www.ycipta.org/stops/002,0,
31,003,"Pacific Avenue Across from 14th Street",,32.702047688846726,-114.59899216890335,US/Arizona,,http://www.ycipta.org/stops/003,0,
32,004,"16th Street In front of Panda Express",,32.69879502311708,-114.6011084318161,US/Arizona,,http://www.ycipta.org/stops/004,0,
33,005,"Redondo Center Drive @ 16th Street",,32.69891288715957,-114.61132344515647,US/Arizona,,http://www.ycipta.org/stops/005,0,
34,006,"Redondo Center Drive @ Plaza Circle",,32.70485008406482,-114.61274367482986,US/Arizona,,http://www.ycipta.org/stops/006,0,
35,007,"Redondo Center Drive @ Furniture Row",,32.70905361986321,-114.61339545162048,US/Arizona,,http://www.ycipta.org/stops/007,0,
36,008,"3rd Street @ Gila Street (Downtown Yuma Transit Center)",,32.72277919772241,-114.61612057597961,US/Arizona,,http://www.ycipta.org/stops/008,0,
37,009,"Gila Street @ 1st Street",,32.7253354335867,-114.61633783490981,US/Arizona,,http://www.ycipta.org/stops/009,0,
38,010,"1st Street @ Main Street",,32.725432109130736,-114.6182906627655,US/Arizona,,http://www.ycipta.org/stops/010,0,
39,011,"1st Street @ 1st Avenue",,32.72527458971493,-114.621053158358,US/Arizona,,http://www.ycipta.org/stops/011,0,
624,447,"State Street @ 8th Street",,32.79171205546877,-115.56116223335266,US/Pacific,,http://www.ycipta.org/stops/447,0,
42,014,"Paradise Casino @ Agnes Road",,32.734267313665946,-114.61338338167991,US/Arizona,,http://www.ycipta.org/stops/014,0,
43,015,"Quechan Drive @ Indian Hill Road",,32.731776187842236,-114.61527031572188,US/Arizona,,http://www.ycipta.org/stops/015,0,
44,016,"Winterhaven Drive @ Railroad Avenue",,32.73845671082036,-114.63451248319472,US/Arizona,,http://www.ycipta.org/stops/016,0,
45,017,"4th Avenue @ 1st Street",,32.72430543127894,-114.62466877611007,US/Arizona,,http://www.ycipta.org/stops/017,0,
46,018,"4th Avenue @ 3rd Street",,32.72130311692252,-114.62466072948303,US/Arizona,,http://www.ycipta.org/stops/018,0,
47,019,"4th Avenue @ 5th Street",,32.71778956995658,-114.62466072948303,US/Arizona,,http://www.ycipta.org/stops/019,0,
48,020,"4th Avenue @ 8th Street",,32.712601362804655,-114.62475997121658,US/Arizona,,http://www.ycipta.org/stops/020,0,
49,021,"4th Avenue @ 10th Street",,32.70859547228913,-114.62475460679855,US/Arizona,,http://www.ycipta.org/stops/021,0,
50,022,"4th Avenue @ 12th Street",,32.70542561341875,-114.62475460679855,US/Arizona,,http://www.ycipta.org/stops/022,0,
51,023,"4th Avenue @ 14th Street",,32.7017827885481,-114.6247465601715,US/Arizona,,http://www.ycipta.org/stops/023,0,
52,024,"4th Avenue @ 17th Street",,32.69683855571554,-114.62474119575347,US/Arizona,,http://www.ycipta.org/stops/024,0,
539,502,"Fortuna Road @ 38th Place",,32.65968992025403,-114.44425284862518,US/Arizona,,http://www.ycipta.org/stops/502,0,
54,026,"4th Avenue @ 20th Place",,32.690221364550126,-114.62473314912643,US/Arizona,,http://www.ycipta.org/stops/026,0,
55,027,"4th Avenue @ 22nd Street",,32.68735899242808,-114.62475058348502,US/Arizona,,http://www.ycipta.org/stops/027,0,
56,338,"4th Avenue @  24th Street",,32.684261748255395,-114.62477874667968,US/Arizona,,http://www.ycipta.org/stops/338,0,
57,028,"24th Street @ 6th Avenue",,32.68404615619617,-114.62713774950828,US/Arizona,,http://www.ycipta.org/stops/028,0,
542,505,"40th Street @ Avenue 12E",,32.655798907482634,-114.42684531211853,US/Arizona,,http://www.ycipta.org/stops/505,0,
59,030,"24th Street @ Avenue A",,32.684065571323565,-114.63430881500244,US/Arizona,,http://www.ycipta.org/stops/030,0,
60,031,"24th Street @ Ridgeview Drive",,32.684071956527845,-114.63721632957458,US/Arizona,,http://www.ycipta.org/stops/031,0,
61,032,"24th Street @ Camino Alameda",,32.68403035361629,-114.64204144389953,US/Arizona,,http://www.ycipta.org/stops/032,0,
62,033,"21st Drive @ 24th Street",,32.683703013834865,-114.64614522369232,US/Arizona,,http://www.ycipta.org/stops/033,0,
63,034,"26th Street @ 23rd Avenue",,32.68042616362339,-114.64790609391059,US/Arizona,,http://www.ycipta.org/stops/034,0,
64,035,"Avenue B @ 24th Street",,32.683654477144316,-114.65018194825973,US/Arizona,,http://www.ycipta.org/stops/035,0,
65,036,"24th Street @ 21st Drive",,32.68379218582514,-114.64627531082954,US/Arizona,,http://www.ycipta.org/stops/036,0,
66,037,"24th Street @ 18th Avenue",,32.683822662308096,-114.64166593463744,US/Arizona,,http://www.ycipta.org/stops/037,0,
67,038,"24th Street @ Yuma Regional Medical Center","Emergency Entrance",32.68384297995717,-114.6358415177616,US/Arizona,,http://www.ycipta.org/stops/038,0,
69,040,"24th Street @ 8th Avenue",,32.68387910021116,-114.62872159393157,US/Arizona,,http://www.ycipta.org/stops/040,0,
73,044,"Catalina Drive @ 4th Avenue",,32.67326250298462,-114.62417793186034,US/Arizona,,http://www.ycipta.org/stops/044,0,
74,045,"Catalina Drive @ Catalina Square Apartments",,32.67330540086586,-114.62097000987853,US/Arizona,,http://www.ycipta.org/stops/045,0,
75,334,"Catalina Drive Across From Country Club Drive",,32.67067956102208,-114.61971875937309,US/Arizona,,http://www.ycipta.org/stops/334,0,
76,335,"32nd Street @ Catalina Drive",,32.66930903614496,-114.61940762312736,US/Arizona,,http://www.ycipta.org/stops/335,0,
77,046,"32nd Street @ Chevy Lane",,32.66923565489545,-114.61394262225951,US/Arizona,,http://www.ycipta.org/stops/046,0,
78,047,"32nd Street @ Crest Drive",,32.66924355749448,-114.61130332858886,US/Arizona,,http://www.ycipta.org/stops/047,0,
79,048,"Yuma International Airport","Near Baggage Claim",32.66851312860634,-114.59853064925994,US/Arizona,,http://www.ycipta.org/stops/048,0,
80,049,"Pacific Avenue @ Fairgrounds Entrance (near 32nd)",,32.67312704617761,-114.59869980812073,US/Arizona,,http://www.ycipta.org/stops/049,0,
81,050,"Pacific Avenue @ Palo Verde Street",,32.67697535122784,-114.59869560511436,US/Arizona,,http://www.ycipta.org/stops/050,0,
82,051,"Pacific Avenue @ San Marcos Drive",,32.68018234219823,-114.59869158180084,US/Arizona,,http://www.ycipta.org/stops/051,0,
83,052,"Pacific Avenue @ 24th Street",,32.684257233243905,-114.59870633395042,US/Arizona,,http://www.ycipta.org/stops/052,0,
84,053,"Pacific Avenue @ Gila Ridge Road",,32.69107802669268,-114.59868755848731,US/Arizona,,http://www.ycipta.org/stops/053,0,
96,065,"24th Street @ Araby Road",,32.684539421031054,-114.52076804550018,US/Arizona,,http://www.ycipta.org/stops/065,0,
97,066,"24th Street @ College Avenue",,32.68457554100309,-114.50876247794952,US/Arizona,,http://www.ycipta.org/stops/066,0,
98,067,"24th Street @ Avenue 7 1/2E",,32.684591343486254,-114.50464796932067,US/Arizona,,http://www.ycipta.org/stops/067,0,
99,068,"AWC, NAU, UA Parking Lot","Next to Agricultural Science Building.",32.6873386755787,-114.49597370536651,US/Arizona,,http://www.ycipta.org/stops/068,0,
100,069,"24th Street @ Tamarack Center",,32.68464778090384,-114.49779492528762,US/Arizona,,http://www.ycipta.org/stops/069,0,
101,070,"24th Street @ Otondo Drive",,32.68467487085168,-114.49090164811935,US/Arizona,,http://www.ycipta.org/stops/070,0,
102,071,"24th Street @ Vista De Castillo Drive",,32.68477081435045,-114.48265385539855,US/Arizona,,http://www.ycipta.org/stops/071,0,
103,072,"Avenue 9E @ 24th Street",,32.68454167852928,-114.47857689769592,US/Arizona,,http://www.ycipta.org/stops/072,0,
104,073,"Avenue 9E @ 28th Street",,32.67742124387619,-114.47838914306487,US/Arizona,,http://www.ycipta.org/stops/073,0,
105,074,"Avenue 9E @ 31st Street",,32.67335958763369,-114.47836232097472,US/Arizona,,http://www.ycipta.org/stops/074,0,
106,075,"32nd Street @ Avenue 8E",,32.670212185049174,-114.49507516534652,US/Arizona,,http://www.ycipta.org/stops/075,0,
107,076,"South Frontage Road @ Desert Air Boulevard",,32.67016138316539,-114.48445764096107,US/Arizona,,http://www.ycipta.org/stops/076,0,
108,077,"South Frontage Road @ Avenue 9E",,32.67001687987222,-114.47795596630897,US/Arizona,,http://www.ycipta.org/stops/077,0,
110,079,"South Frontage Road @ Westwind Boulevard",,32.67017154354432,-114.46306970627631,US/Arizona,,http://www.ycipta.org/stops/079,0,
112,081,"South Frontage Road @ Fortuna Road",,32.668171383202896,-114.44363057613373,US/Arizona,,http://www.ycipta.org/stops/081,0,
498,445,"Imperial Avenue @ Pepper Drive",,32.77990521514595,-115.56946635246277,US/Pacific,,http://www.ycipta.org/stops/445,0,
499,468,"Imperial Avenue @ Holt Avenue",,32.78781570082287,-115.56963801383972,US/Pacific,,http://www.ycipta.org/stops/468,0,
500,446,"State Street @ 14th Street",,32.791617354428446,-115.56773900985718,US/Pacific,,http://www.ycipta.org/stops/446,0,
120,090,"South Frontage Road Across Avenue 8 1/2E",,32.67038265338039,-114.48500883491363,US/Arizona,,http://www.ycipta.org/stops/090,0,
122,091,"32nd Street @ Avenue 8E",,32.670476354377556,-114.49506175430145,US/Arizona,,http://www.ycipta.org/stops/091,0,
123,092,"Avenue 9E @ 31st Street",,32.67368019200444,-114.47818797738876,US/Arizona,,http://www.ycipta.org/stops/092,0,
124,093,"Avenue 9E @ 28th Street",,32.677773441052,-114.47824698598708,US/Arizona,,http://www.ycipta.org/stops/093,0,
125,094,"24th Street @ Avenue 9E",,32.685043970571115,-114.47901141555633,US/Arizona,,http://www.ycipta.org/stops/094,0,
126,095,"24th Street Across Vista De Castillo Avenue",,32.68501010827516,-114.48335927636947,US/Arizona,,http://www.ycipta.org/stops/095,0,
127,096,"24th Street @ Yuma Education Consortium Yard",,32.68500672204487,-114.48655915172424,US/Arizona,,http://www.ycipta.org/stops/096,0,
128,097,"24th Street @ Otondo Drive",,32.68493222494563,-114.49100893647994,US/Arizona,,http://www.ycipta.org/stops/097,0,
130,099,"24th Street @ Desert Mesa Elementary And Avenue 7 1/2E",,32.6848961051174,-114.50403910787429,US/Arizona,,http://www.ycipta.org/stops/099,0,
131,100,"24th Street @ Gila Ridge High And College Avenue","Has turnout",32.68486450025611,-114.50931635411109,US/Arizona,,http://www.ycipta.org/stops/100,0,
142,111,"Pacific Avenue @ 16th Street - after Starbucks Coffee",,32.698087900394924,-114.59899869473304,US/Arizona,,http://www.ycipta.org/stops/111,0,
143,112,"Pacific Avenue @ 20th Street",,32.69114010334037,-114.59897053153838,US/Arizona,,http://www.ycipta.org/stops/112,0,
147,116,"24th Street @ Arizona Avenue",,32.68528513705899,-114.61590081453323,US/Arizona,,http://www.ycipta.org/stops/116,0,
369,327,"Steamboat Street @ Orange Grove Way",,32.62333257581569,-114.76965844631195,US/Arizona,,http://www.ycipta.org/stops/327,0,
151,120,"23rd Avenue @ 28th Street",,32.67710178177471,-114.64820247800674,US/Arizona,,http://www.ycipta.org/stops/120,0,
153,122,"21st Drive Across from Yuma County Library Main Branch",,32.67360004101983,-114.64602318318214,US/Arizona,,http://www.ycipta.org/stops/122,0,
154,123,"Avenue B @ 32nd Street",,32.66926274951772,-114.6502476623806,US/Arizona,,http://www.ycipta.org/stops/123,0,
155,124,"US Highway 95 @ Patricia Lane",,32.63906069592618,-114.65019267709579,US/Arizona,,http://www.ycipta.org/stops/124,0,
156,125,"US Highway 95 @ County 15th Street",,32.61084799787394,-114.65123337419357,US/Arizona,,http://www.ycipta.org/stops/125,0,
157,126,"Cocopah Casino Main Entrance",,32.60691323640021,-114.65204474242057,US/Arizona,,http://www.ycipta.org/stops/126,0,
158,127,"US Highway 95 @ Avenue C",,32.59773710328855,-114.66732662828292,US/Arizona,,http://www.ycipta.org/stops/127,0,
159,128,"Main Street Somerton Across from Cholla Avenue",,32.59680610597086,-114.70148992450561,US/Arizona,,http://www.ycipta.org/stops/128,0,
160,129,"Main Street Somerton @ Columbia Avenue",,32.59675639224992,-114.70597591908302,US/Arizona,,http://www.ycipta.org/stops/129,0,
161,130,"Main Street Somerton @ Somerton Avenue",,32.59672814580512,-114.70950436504211,US/Arizona,,http://www.ycipta.org/stops/130,0,
162,131,"Main Street Somerton @ State Avenue",,32.59671458750844,-114.71127328188743,US/Arizona,,http://www.ycipta.org/stops/131,0,
163,132,"Main Street Somerton @ Carliste Avenue",,32.5967066785011,-114.71437391550865,US/Arizona,,http://www.ycipta.org/stops/132,0,
164,133,"Main Street Somerton @ Cesar Chavez Boulevard",,32.596713457650736,-114.71942853839721,US/Arizona,,http://www.ycipta.org/stops/133,0,
165,134,"US Highway 95 @ Housing Department",,32.596729275663,-114.74296492250289,US/Arizona,,http://www.ycipta.org/stops/134,0,
166,135,"Main Street Gadsen @ 1st Avenue",,32.56188220360353,-114.78489053161468,US/Arizona,,http://www.ycipta.org/stops/135,0,
167,136,"Main Street Gadsen @ 4th Avenue",,32.55730099228807,-114.78492137701835,US/Arizona,,http://www.ycipta.org/stops/136,0,
168,137,"Main Street Gadsen @ 6th Avenue",,32.5542410695061,-114.78494685800399,US/Arizona,,http://www.ycipta.org/stops/137,0,
173,142,"Juan Sanchez Boulevard @ Main Street",,32.49411001572436,-114.78308674605216,US/Arizona,,http://www.ycipta.org/stops/142,0,
578,472,"Avenue A @ YRMC Parking Garage",,32.68095911529712,-114.63330566883087,US/Arizona,,http://www.ycipta.org/stops/472,0,
577,553,"Fortuna Road @ South Frontage Road",,32.66832465524891,-114.44454789161682,US/Arizona,,http://www.ycipta.org/stops/553,0,
177,146,"Main Street @ Juan Sanchez Boulevard",,32.494371311026946,-114.78358697803344,US/Arizona,,http://www.ycipta.org/stops/146,0,
178,147,"US Highway 95 @ Lakin Drive",,32.499053006013035,-114.78578102500762,US/Arizona,,http://www.ycipta.org/stops/147,0,
179,148,"US Highway 95 @ Estibella Drive",,32.501652208629785,-114.78647571714248,US/Arizona,,http://www.ycipta.org/stops/148,0,
180,149,"US Highway 95 @ Piceno Avenue",,32.50482136970945,-114.78657495887603,US/Arizona,,http://www.ycipta.org/stops/149,0,
181,150,"US Highway 95 @ Walmart Driveway",,32.506732765470346,-114.78652131469573,US/Arizona,,http://www.ycipta.org/stops/150,0,
182,151,"Main Street Gadsden @ County 19th Street",,32.55282580580395,-114.78470277698364,US/Arizona,,http://www.ycipta.org/stops/151,0,
183,152,"Main Street @ 5th Avenue",,32.55605307184155,-114.78470545919265,US/Arizona,,http://www.ycipta.org/stops/152,0,
184,153,"Main Street @ 1st Avenue",,32.5615521562271,-114.78459951193656,US/Arizona,,http://www.ycipta.org/stops/153,0,
185,154,"US Highway 95 Across from Housing Deptartment",,32.59641517460195,-114.74107128293838,US/Arizona,,http://www.ycipta.org/stops/154,0,
186,155,"Main Street Somerton @ Cesar Chavez Avenue",,32.59650669337014,-114.71818265230979,US/Arizona,,http://www.ycipta.org/stops/155,0,
187,156,"Main Street Somerton @ Federal Avenue",,32.59653042044287,-114.71440341980781,US/Arizona,,http://www.ycipta.org/stops/156,0,
188,157,"Main Street Somerton Across State Avenue",,32.596534939884506,-114.711105643824,US/Arizona,,http://www.ycipta.org/stops/157,0,
189,158,"Main Street Somerton @ Somerton Avenue",,32.596540589186475,-114.70953521044578,US/Arizona,,http://www.ycipta.org/stops/158,0,
190,159,"Main Street Somerton @ Bingham Avenue",,32.59655075792878,-114.7046951642784,US/Arizona,,http://www.ycipta.org/stops/159,0,
191,160,"Main Street Somerton @ Cholla Avenue",,32.59656657597023,-114.70196869881477,US/Arizona,,http://www.ycipta.org/stops/160,0,
192,161,"US Highway 95 @ Avenue C ",,32.597433174402035,-114.66733601601447,US/Arizona,,http://www.ycipta.org/stops/161,0,
193,162,"US Highway 95 @ County 15th Street",,32.61148400538971,-114.65049308450546,US/Arizona,,http://www.ycipta.org/stops/162,0,
194,163,"US Highway 95 @ Patricia Lane",,32.63940739767755,-114.64993384392585,US/Arizona,,http://www.ycipta.org/stops/163,0,
195,164,"32nd Street @ Avenue B",,32.669342904393595,-114.64965757639732,US/Arizona,,http://www.ycipta.org/stops/164,0,
196,165,"21st Drive @ Yuma County Library Main Branch",,32.673559401056195,-114.64579519541587,US/Arizona,,http://www.ycipta.org/stops/165,0,
197,166,"21st Drive @ Yuma Catholic High School",,32.67706072726778,-114.64578866958618,US/Arizona,,http://www.ycipta.org/stops/166,0,
199,168,"4th Avenue @ 24th Street",,32.68419628056457,-114.62450784356918,US/Arizona,,http://www.ycipta.org/stops/168,0,
200,169,"4th Avenue @ 22nd Street",,32.687888357595284,-114.62450650246467,US/Arizona,,http://www.ycipta.org/stops/169,0,
201,170,"4th Avenue @ 20th Street",,32.69146064388732,-114.62450382025565,US/Arizona,,http://www.ycipta.org/stops/170,0,
202,171,"4th Avenue @ 18th Street",,32.69504181617838,-114.62451454909171,US/Arizona,,http://www.ycipta.org/stops/171,0,
207,176,"Pacific Avenue @ 24th Street",,32.68388361524188,-114.59893968613471,US/Arizona,,http://www.ycipta.org/stops/176,0,
208,177,"Pacific Avenue @ San Marcos Drive",,32.67979741905675,-114.59894236834373,US/Arizona,,http://www.ycipta.org/stops/177,0,
209,178,"Pacific Avenue @ Palo Verde Street",,32.67649784853198,-114.59892895729865,US/Arizona,,http://www.ycipta.org/stops/178,0,
210,179,"Pacific Avenue @ Walmart",,32.674583296722176,-114.59895175607528,US/Arizona,,http://www.ycipta.org/stops/179,0,
218,187,"32nd Street @ Pacific Avenue",,32.669547242554664,-114.5991006186756,US/Arizona,,http://www.ycipta.org/stops/187,0,
219,188,"32nd Street @ Fortuna Avenue",,32.66951563226195,-114.60754957707252,US/Arizona,,http://www.ycipta.org/stops/188,0,
220,189,"32nd Street @ Chiquita Drive",,32.669498698172035,-114.6139573744091,US/Arizona,,http://www.ycipta.org/stops/189,0,
221,190,"32nd Street @ Arizona Avenue",,32.66951111650489,-114.61669322760429,US/Arizona,,http://www.ycipta.org/stops/190,0,
222,191,"32nd Street @ Catalina Drive",,32.66959616876736,-114.61941969306793,US/Arizona,,http://www.ycipta.org/stops/191,0,
223,192,"4th Avenue Extension @ 32nd Street",,32.67105323425645,-114.62462988407935,US/Arizona,,http://www.ycipta.org/stops/192,0,
224,193,"32nd Street @ 4th Avenue",,32.66946257210302,-114.6248913994583,US/Arizona,,http://www.ycipta.org/stops/193,0,
225,194,"32nd Street @ 8th Avenue",,32.669472732561104,-114.62889727862205,US/Arizona,,http://www.ycipta.org/stops/194,0,
226,195,"Avenue A @ 32nd Street",,32.66978883513669,-114.63295277865257,US/Arizona,,http://www.ycipta.org/stops/195,0,
227,196,"Avenue A Across from Kofa High School",,32.67210425240602,-114.63298228295173,US/Arizona,,http://www.ycipta.org/stops/196,0,
228,197,"Avenue A @ 28th Street",,32.676746195406395,-114.633030562714,US/Arizona,,http://www.ycipta.org/stops/197,0,
229,198,"Avenue A @ Westridge Drive",,32.679441843419774,-114.63308286578979,US/Arizona,,http://www.ycipta.org/stops/198,0,
230,199,"Avenue A @ Southwest Medical Center",,32.68219836416404,-114.6331391921791,US/Arizona,,http://www.ycipta.org/stops/199,0,
231,200,"24th Street @ Avenue B",,32.68406534503924,-114.6507183900627,US/Arizona,,http://www.ycipta.org/stops/200,0,
232,201,"24th Street @ 34th Drive",,32.683905061634825,-114.66109853895034,US/Arizona,,http://www.ycipta.org/stops/201,0,
233,202,"24th Street @ 37th Avenue",,32.683891516545124,-114.6635956755432,US/Arizona,,http://www.ycipta.org/stops/202,0,
234,203,"Avenue C @ 24th Street",,32.68414435787917,-114.6673051706108,US/Arizona,,http://www.ycipta.org/stops/203,0,
235,204,"Avenue C @ 21st Lane",,32.687566675511874,-114.66727566631164,US/Arizona,,http://www.ycipta.org/stops/204,0,
236,205,"Avenue C @ 20th Street",,32.691466287196576,-114.6673051706108,US/Arizona,,http://www.ycipta.org/stops/205,0,
237,206,"Avenue C @ 18th Street",,32.69502940139454,-114.66731724055137,US/Arizona,,http://www.ycipta.org/stops/206,0,
238,207,"16th Street @ Avenue C",,32.69833505865292,-114.6670517018589,US/Arizona,,http://www.ycipta.org/stops/207,0,
239,208,"16th Street @ 31st Drive",,32.69834860155127,-114.65708863647308,US/Arizona,,http://www.ycipta.org/stops/208,0,
240,209,"16th Street @ Arcadia Lane",,32.69837907306488,-114.6534005990776,US/Arizona,,http://www.ycipta.org/stops/209,0,
241,210,"Avenue B @ 16th Street",,32.69887903012359,-114.65028789551582,US/Arizona,,http://www.ycipta.org/stops/210,0,
242,211,"Avenue B @ 12th Street",,32.70598308341004,-114.65030801208343,US/Arizona,,http://www.ycipta.org/stops/211,0,
243,212,"Avenue B @ Del Valle Mobile Home Park",,32.70799852278217,-114.65031471760597,US/Arizona,,http://www.ycipta.org/stops/212,0,
244,213,"Avenue B @ 8th Street",,32.71348263457781,-114.65032678754653,US/Arizona,,http://www.ycipta.org/stops/213,0,
245,214,"Avenue B @ Immaculate Conception Church And School",,32.716353195706816,-114.6503026476654,US/Arizona,,http://www.ycipta.org/stops/214,0,
246,215,"Avenue B Across 5th Street",,32.718548932070206,-114.65032544644203,US/Arizona,,http://www.ycipta.org/stops/215,0,
247,216,"3rd Street @ 24th Avenue",,32.72146897458145,-114.64813139946784,US/Arizona,,http://www.ycipta.org/stops/216,0,
248,217,"3rd Street @ 20th Avenue",,32.72146671801647,-114.64459893019523,US/Arizona,,http://www.ycipta.org/stops/217,0,
249,218,"3rd Street @ 17th Avenue",,32.7214813856861,-114.6407754412445,US/Arizona,,http://www.ycipta.org/stops/218,0,
250,219,"3rd Street @ 15th Avenue",,32.72147574427502,-114.63849690468635,US/Arizona,,http://www.ycipta.org/stops/219,0,
251,336,"3rd Street @ 13th Avenue",,32.72147235942822,-114.63566180975761,US/Arizona,,http://www.ycipta.org/stops/336,0,
252,220,"3rd Street @ Avenue A",,32.72148025740389,-114.63299167068328,US/Arizona,,http://www.ycipta.org/stops/220,0,
253,337,"3rd Street @ 8th Avenue",,32.721480257404046,-114.62972071678962,US/Arizona,,http://www.ycipta.org/stops/337,0,
254,221,"3rd Street @ 6th Avenue",,32.72148477053264,-114.6268708697113,US/Arizona,,http://www.ycipta.org/stops/221,0,
255,222,"Giss Parkway @ 4th Avenue",,32.721473487710504,-114.624295949057,US/Arizona,,http://www.ycipta.org/stops/222,0,
258,225,"Giss Parkway @ 7th Street",,32.71531736708495,-114.60883569629516,US/Arizona,,http://www.ycipta.org/stops/225,0,
260,227,"Castle Dome Avenue @ Yuma Palms Parkway (Near Kneaders)",,32.700045961886936,-114.60345518501128,US/Arizona,,http://www.ycipta.org/stops/227,0,
261,228,"Castle Dome Avenue Across from Shilo Inn",,32.700020005156595,-114.6051878920349,US/Arizona,,http://www.ycipta.org/stops/228,0,
262,229,"Chapay Street @ Quail Run Loop",,32.7312912596236,-114.70181849510993,US/Arizona,,http://www.ycipta.org/stops/229,0,
263,230,"Strand Avenue @ Chapay Street",,32.728686304626905,-114.69119292409744,US/Arizona,,http://www.ycipta.org/stops/230,0,
264,231,"Cocopah Drive @ Broadmore",,32.73433723431131,-114.69318044097747,US/Arizona,,http://www.ycipta.org/stops/231,0,
266,233,"Avenue C @ 4th Place",,32.719604901769095,-114.66758143813934,US/Arizona,,http://www.ycipta.org/stops/233,0,
267,234,"Avenue C @ Amador Lane",,32.71621114728294,-114.66756534488525,US/Arizona,,http://www.ycipta.org/stops/234,0,
540,503,"40th Street @ Fortuna",,32.655729925505625,-114.44390416145325,US/Arizona,,http://www.ycipta.org/stops/503,0,
541,504,"40th Street Across Scottsdale Drive",,32.65576206247168,-114.43539619445801,US/Arizona,,http://www.ycipta.org/stops/504,0,
546,509,"Foothills Boulevard @ 38th Place",,32.6588060991994,-114.40968990325928,US/Arizona,,http://www.ycipta.org/stops/509,0,
543,506,"40th Street @ Across Bonnie Avenue",,32.655812959454146,-114.42213535308838,US/Arizona,,http://www.ycipta.org/stops/506,0,
544,507,"40th Street @ Across Cassidy Drive",,32.6558321211236,-114.41400825977325,US/Arizona,,http://www.ycipta.org/stops/507,0,
545,508,"Foothills Boulevard @ 40th Steet",,32.65605111492356,-114.40972208976746,US/Arizona,,http://www.ycipta.org/stops/508,0,
289,256,"Cottonwood Loop @ Salt Cedar Avenue",,32.56861513109806,-114.67360031516876,US/Arizona,,http://www.ycipta.org/stops/256,0,
290,257,"Cottonwood Loop @ Head Start School",,32.56751203708427,-114.6731590917858,US/Arizona,,http://www.ycipta.org/stops/257,0,
291,258,"Cottonwood Park Loop @ Cottonwood Loop",,32.564629913909734,-114.67329722555007,US/Arizona,,http://www.ycipta.org/stops/258,0,
292,259,"Cottonwood Loop @ Salt Cedar Avenue",,32.56874058457846,-114.67359763295974,US/Arizona,,http://www.ycipta.org/stops/259,0,
293,260,"Veterans Way @ Cocopah Tribe Administration",,32.615879450723604,-114.76790410192336,US/Arizona,,http://www.ycipta.org/stops/260,0,
294,261,"Veterans Drive @ Veterans Way",,32.61619800198463,-114.76706054718818,US/Arizona,,http://www.ycipta.org/stops/261,0,
295,262,"Centre Avenue - Across Hava Street/Community Center",,32.62272805306583,-114.76597157032813,US/Arizona,,http://www.ycipta.org/stops/262,0,
296,263,"Centre Avenue @ Steamboat Street",,32.62425742361795,-114.76616871269073,US/Arizona,,http://www.ycipta.org/stops/263,0,
297,264,"County 16th Street - Across from Rincon de Eslana",,32.59655527736958,-114.66122728498306,US/Arizona,,http://www.ycipta.org/stops/264,0,
298,265,"County 16th Street @ Paso Descanso",,32.59656092667019,-114.6540671280178,US/Arizona,,http://www.ycipta.org/stops/265,0,
299,266,"County 16th Street @ Avenue B ",,32.59658013428917,-114.64987885864105,US/Arizona,,http://www.ycipta.org/stops/266,0,
303,270,"Avenue A @ 24th Street",,32.684214340621985,-114.63314723880615,US/Arizona,,http://www.ycipta.org/stops/270,0,
304,271,"Avenue A @ 22nd Street",,32.687731467180136,-114.6331579676422,US/Arizona,,http://www.ycipta.org/stops/271,0,
305,272,"Avenue A @ 20th Street",,32.691473059167045,-114.63316869647826,US/Arizona,,http://www.ycipta.org/stops/272,0,
306,273,"Avenue A @ 18th Street",,32.695288982870345,-114.63316601426925,US/Arizona,,http://www.ycipta.org/stops/273,0,
307,274,"Avenue A @ 16th Street",,32.69881018744429,-114.63313382776107,US/Arizona,,http://www.ycipta.org/stops/274,0,
308,275,"Avenue A @ 14th Street",,32.70239670749537,-114.63321697624053,US/Arizona,,http://www.ycipta.org/stops/275,0,
309,276,"Avenue A @ 12th Street",,32.70604627816932,-114.63322770507659,US/Arizona,,http://www.ycipta.org/stops/276,0,
310,277,"Avenue A @ 10th Street",,32.709605425025146,-114.6331928363594,US/Arizona,,http://www.ycipta.org/stops/277,0,
311,278,"8th Street @ 12th Avenue",,32.713186997642296,-114.63465732248153,US/Arizona,,http://www.ycipta.org/stops/278,0,
312,279,"8th Street @ 14th Avenue",,32.7131813557065,-114.63772979290809,US/Arizona,,http://www.ycipta.org/stops/279,0,
313,280,"8th Street @ Magnolia Avenue",,32.713182484093565,-114.64208570034828,US/Arizona,,http://www.ycipta.org/stops/280,0,
314,281,"8th Street @ Dora Avenue",,32.713177970544805,-114.64570534141387,US/Arizona,,http://www.ycipta.org/stops/281,0,
315,282,"8th Street @ Avenue B",,32.71318248409364,-114.65061780722465,US/Arizona,,http://www.ycipta.org/stops/282,0,
316,283,"8th Street @ Clifford Way",,32.71318699764212,-114.65503406436767,US/Arizona,,http://www.ycipta.org/stops/283,0,
317,284,"8th Street @ May Avenue",,32.713180227319185,-114.65920758159484,US/Arizona,,http://www.ycipta.org/stops/284,0,
318,285,"8th Street @ Palm Avenue",,32.71318022731941,-114.6634508362564,US/Arizona,,http://www.ycipta.org/stops/285,0,
323,290,"Chapay Way @ Levee Road",,32.72916804088928,-114.70600140006866,US/Arizona,,http://www.ycipta.org/stops/290,0,
324,291,"Avenue I @ Cocopah Vocational Training Center",,32.62261961812045,-114.77114957483138,US/Arizona,,http://www.ycipta.org/stops/291,0,
547,510,"Foothills Boulevard @ Tiffany Lane",,32.66513772482835,-114.40962553024292,US/Arizona,,http://www.ycipta.org/stops/510,0,
326,293,"Veterans Way - Across From Cocopah Tribal Police",,32.615019808508634,-114.76784777553405,US/Arizona,,http://www.ycipta.org/stops/293,0,
332,299,"Yuma County Library Foothills Branch",,32.6682162493609,-114.40699142129745,US/Arizona,,http://www.ycipta.org/stops/299,0,
333,300,"Wellton Jack in the Box",,32.6571901528077,-114.14226007373657,US/Arizona,,http://www.ycipta.org/stops/300,0,
334,301,"Arizona Avenue @ William Street ",,32.67077890632448,-114.1418148270401,US/Arizona,,http://www.ycipta.org/stops/301,0,
335,302,"Arizona Avenue @ Fresno Street",,32.67082180539816,-114.13844060809936,US/Arizona,,http://www.ycipta.org/stops/302,0,
336,303,"Dome Street @ San Jose Avenue ",,32.67178815802179,-114.13355094106521,US/Arizona,,http://www.ycipta.org/stops/303,0,
337,304,"Dome Street @ Los Angeles Street",,32.6736440676258,-114.1335858097824,US/Arizona,,http://www.ycipta.org/stops/304,0,
338,305,"Los Angeles Street @ Fresno Street",,32.67386081367848,-114.13849693448867,US/Arizona,,http://www.ycipta.org/stops/305,0,
339,306,"Los Angeles Street @ William Street",,32.67379533836392,-114.14256316335525,US/Arizona,,http://www.ycipta.org/stops/306,0,
340,307,"Los Angeles Street @ Center Street",,32.67239550981262,-114.14847206981506,US/Arizona,,http://www.ycipta.org/stops/307,0,
341,308,"Arizona Avenue @ Los Angeles Street",,32.67081728970719,-114.1519750347885,US/Arizona,,http://www.ycipta.org/stops/308,0,
342,309,"Arizona Avenue @ Maybelle Street",,32.67075407000918,-114.14643090875472,US/Arizona,,http://www.ycipta.org/stops/309,0,
343,310,"Arizona Avenue @ William Street",,32.67077213278452,-114.14236736209716,US/Arizona,,http://www.ycipta.org/stops/310,0,
615,549,"San Pasqual School Road @ Picascho Road",,32.74550839115469,-114.61568355560303,US/Arizona,,http://www.ycipta.org/stops/549,0,
614,548,"Quechan Drive @ Across indian Hill Drive",,32.73198005213152,-114.6150666475296,US/Arizona,,http://www.ycipta.org/stops/548,0,
349,316,"South Frontage Road @ Fortuna Road",,32.66836975160107,-114.4446952334198,US/Arizona,,http://www.ycipta.org/stops/316,0,
350,317,"Araby Road @ 24th Street",,32.68438026722847,-114.52162769348945,US/Arizona,,http://www.ycipta.org/stops/317,0,
351,339,"Juan Sanchez Boulevard @ 4th Avenue",,32.49414960597099,-114.77784973295059,US/Arizona,,http://www.ycipta.org/stops/339,0,
352,318,"Juan Sanchez Boulevard @ 6th Avenue",,32.49417901585639,-114.76912450702514,US/Arizona,,http://www.ycipta.org/stops/318,0,
353,319,"Juan Sanchez Boulevard - Across from 7th Avenue",,32.49423783559924,-114.76418119581069,US/Arizona,,http://www.ycipta.org/stops/319,0,
354,320,"8th Avenue @ Juan Sanchez Boulevard",,32.49466088415524,-114.76081770570602,US/Arizona,,http://www.ycipta.org/stops/320,0,
355,321,"8th Avenue - Across from America Street",,32.49772623002752,-114.76083111675109,US/Arizona,,http://www.ycipta.org/stops/321,0,
356,322,"AWC San Luis Center @ Main Office",,32.501487074405986,-114.76056423695411,US/Arizona,,http://www.ycipta.org/stops/322,0,
357,323,"8th Avenue @ America Street",,32.49738011133421,-114.76105374009933,US/Arizona,,http://www.ycipta.org/stops/323,0,
358,324,"Juan Sanchez Boulevard @ 8th Avenue",,32.49419372079552,-114.76057630689468,US/Arizona,,http://www.ycipta.org/stops/324,0,
359,325,"Juan Sanchez Boulevard @ 9th Avenue",,32.49421068803041,-114.75636792095031,US/Arizona,,http://www.ycipta.org/stops/325,0,
360,326,"Araby Road @ 32nd Street",,32.6706671428514,-114.52123609097328,US/Arizona,,http://www.ycipta.org/stops/326,0,
362,328,"Araby Road @ 32nd Street",,32.67052151144945,-114.52171754749145,US/Arizona,,http://www.ycipta.org/stops/328,0,
363,329,"Juan Sanchez Boulevard @ 9th Street",,32.49440524542603,-114.75626331479873,US/Arizona,,http://www.ycipta.org/stops/329,0,
364,330,"Juan Sanchez Boulevard @ 8th Avenue",,32.49439845854731,-114.76123613031234,US/Arizona,,http://www.ycipta.org/stops/330,0,
365,331,"Juan Sanchez Boulevard @ 7th Avenue",,32.4943780979078,-114.76458620937194,US/Arizona,,http://www.ycipta.org/stops/331,0,
366,332,"Juan Sanchez Boulevard @ 6th Avenue",,32.49431475366655,-114.76988088996734,US/Arizona,,http://www.ycipta.org/stops/332,0,
372,118,"Ligurta Station @ US Highway 80","All stops by request only.",32.674897123475674,-114.29660510928954,US/Arizona,,http://www.ycipta.org/stops/118,0,
373,119,"US Highway 95 @ Avenue D",,32.596889715348624,-114.68430501134719,US/Arizona,,http://www.ycipta.org/stops/119,0,
374,340,"US Highway 95 @ Avenue D",,32.59666600359533,-114.68357813270416,US/Arizona,,http://www.ycipta.org/stops/340,0,
378,344,"Across Quechan Community Center @ San Pasqual School Road",,32.7454727592836,-114.61367976577606,US/Arizona,,http://www.ycipta.org/stops/344,0,
379,345,"Baseline Road @  San Pasqual School Road",,32.74564175667575,-114.59878814132537,US/Arizona,,http://www.ycipta.org/stops/345,0,
380,346,"Ironwood Drive @ Ironwood Terrace",,32.74659002592229,-114.59426325471725,US/Arizona,,http://www.ycipta.org/stops/346,0,
381,348,"Arnold Road @ Cocopah Road",,32.75289546487498,-114.59527999162674,US/Arizona,,http://www.ycipta.org/stops/348,0,
382,349,"Arnold Road @ Baseline Road",,32.75286834868728,-114.59883660078049,US/Arizona,,http://www.ycipta.org/stops/349,0,
383,347,"Ironwood Drive @ Ironwood Terrace",,32.7507543731036,-114.593858241156,US/Arizona,,http://www.ycipta.org/stops/347,0,
398,364,"Winterhaven Dr @ Jimbo's Towing",,32.74018002482952,-114.64236196787681,US/Arizona,,http://www.ycipta.org/stops/364,0,
399,365,"Quechan Casino Resort @ Main Entrance",,32.740757357083,-114.72238719463348,US/Arizona,,http://www.ycipta.org/stops/365,0,
400,366,"Quechan Casino Resort South Entrance Road @ State Route 186/Agladones Road",,32.73804551191285,-114.71781134605408,US/Arizona,,http://www.ycipta.org/stops/366,0,
401,367,"Winterhaven Dr @ Sans End RV Park (2209 Winterhaven Dr)",,32.73996186063611,-114.64227747829284,US/Arizona,,http://www.ycipta.org/stops/367,0,
402,368,"Winterhaven Dr @ 2nd Avenue",,32.738316248915886,-114.6346253156662,US/Arizona,,http://www.ycipta.org/stops/368,0,
403,369,"1st Street @ 4th Avenue",,32.72518507202063,-114.62428924353446,US/Arizona,,http://www.ycipta.org/stops/369,0,
404,370,"1st Street @ 1st Avenue",,32.725183201224596,-114.62107479572296,US/Arizona,,http://www.ycipta.org/stops/370,0,
409,375,"Agnes Road @ Indian Hill Road",,32.73515181620927,-114.61803299100723,US/Arizona,,http://www.ycipta.org/stops/375,0,
410,376,"Agnes Road @ Quechan Drive",,32.735205291825125,-114.61561095626678,US/Arizona,,http://www.ycipta.org/stops/376,0,
411,377,"Giss Parkway @ Gila Street",,32.721369685679846,-114.61615276248779,US/Arizona,,http://www.ycipta.org/stops/377,0,
412,378,"16th Street @ Sunridge Drive",,32.69844001606167,-114.6019263258728,US/Arizona,,http://www.ycipta.org/stops/378,0,
413,379,"US Highway 95 @ County 20 1/2 Street",,32.53101053332924,-114.78657764108505,US/Arizona,,http://www.ycipta.org/stops/379,0,
417,383,"1st Street @ 3rd Street / City Hall",,32.72238964822071,-114.62075543315734,US/Arizona,,http://www.ycipta.org/stops/383,0,
418,384,"2nd Street @ 1st Avenue",,32.72405637598068,-114.62046575458373,US/Arizona,,http://www.ycipta.org/stops/384,0,
419,385,"2nd Street @ Main Street",,32.72405044721607,-114.61849164874877,US/Arizona,,http://www.ycipta.org/stops/385,0,
420,386,"Redondo Center Drive Across from Furniture Row",,32.708966729986976,-114.61353492648925,US/Arizona,,http://www.ycipta.org/stops/386,0,
421,387,"Redondo Center Drive Across From Social Security",,32.70657085254053,-114.61329352767791,US/Arizona,,http://www.ycipta.org/stops/387,0,
438,467,"Atlantic Avenue @ 14th Street",,32.70214344757229,-114.59028974175453,US/Arizona,,http://www.ycipta.org/stops/467,0,
437,400,"Avenue F @ Olivos Drive",,32.48592260505165,-114.71760749816894,US/Arizona,,http://www.ycipta.org/stops/400,0,
436,399,"Avenue F @ San Pedro Street",,32.484682743136176,-114.71786499023437,US/Arizona,,http://www.ycipta.org/stops/399,0,
429,395,"Quechan Casino Resort @ Employee Entrance",,32.740892721567874,-114.72352981567383,US/Arizona,,http://www.ycipta.org/stops/395,0,
428,394,"Gila Street @ 3rd Street (Downtown Yuma Transit Center)",,32.722651406637375,-114.61610984714355,US/Arizona,,http://www.ycipta.org/stops/394,0,
430,113,"24th Street @ Pacific Avenue",,32.684186553737156,-114.59949892671432,US/Arizona,,http://www.ycipta.org/stops/113,0,
431,114,"24th Street @ Olivia Avenue",,32.68411952528021,-114.60366439731445,US/Arizona,,http://www.ycipta.org/stops/114,0,
432,115,"24th Street @ Kennedy Lane",,32.68411166862697,-114.60994613082732,US/Arizona,,http://www.ycipta.org/stops/115,0,
433,396,"16th Street Across Redondo Center Drive",,32.69838784728278,-114.61113166721191,US/Arizona,,http://www.ycipta.org/stops/396,0,
435,398,"Riverside Drive @ Hope Way",,32.72059680806548,-114.68874809058036,US/Arizona,,http://www.ycipta.org/stops/398,0,
439,401,"Castle Dome Avenue @ 12th Street",,32.70570908880885,-114.60702538490295,US/Arizona,,http://www.ycipta.org/stops/401,0,
440,466,"Quechan Drive @ Sapphire Lane","Pipa Market",32.73804099962249,-114.61550116539001,US/Arizona,,http://www.ycipta.org/stops/466,0,
442,432,"Somerton Avenue @ 14th Street",,32.58280066065175,-114.70983982086182,US/Arizona,,http://www.ycipta.org/stops/432,0,
443,433,"Somerton Avenue @ Patricia Street",,32.58621329702869,-114.70982909202576,US/Arizona,,http://www.ycipta.org/stops/433,0,
444,434,"Somerton Avenue @ Garvin Street",,32.58936817508376,-114.70979154109955,US/Arizona,,http://www.ycipta.org/stops/434,0,
445,435,"Somerton Avenue @ Joshua Street",,32.59142014218064,-114.70975935459137,US/Arizona,,http://www.ycipta.org/stops/435,0,
446,436,"Somerton Avenue @ Crane Street",,32.593011062309486,-114.70975399017334,US/Arizona,,http://www.ycipta.org/stops/436,0,
447,437,"Somerton Avenue @ Eucalyptus Street",,32.594769176986304,-114.70972716808319,US/Arizona,,http://www.ycipta.org/stops/437,0,
452,402,"32nd Street @ Araby Road",,32.67024966586698,-114.52217102050781,US/Arizona,,http://www.ycipta.org/stops/402,0,
453,403,"32nd Street @ Avenue 6E",,32.67011600279408,-114.53033566474915,US/Arizona,,http://www.ycipta.org/stops/403,0,
454,404,"32nd Street @ Blue Diamond RV Park",,32.6701255820962,-114.53477203845978,US/Arizona,,http://www.ycipta.org/stops/404,0,
455,405,"32nd Street @ Avenue 5 1/2 E",,32.670119195894905,-114.5388114452362,US/Arizona,,http://www.ycipta.org/stops/405,0,
456,406,"32nd Street @ Avenue 5E",,32.67010642349097,-114.54724967479706,US/Arizona,,http://www.ycipta.org/stops/406,0,
457,407,"32nd Street @ Soar Avenue",,32.670010630403205,-114.55766201019287,US/Arizona,,http://www.ycipta.org/stops/407,0,
458,408,"32nd Street @ Avenue 4E",,32.66993080275165,-114.56446141004562,US/Arizona,,http://www.ycipta.org/stops/408,0,
459,409,"32nd Street @ Avenue 3 1/2 E",,32.66983181636464,-114.57306861877441,US/Arizona,,http://www.ycipta.org/stops/409,0,
460,410,"32nd Street @ Shortway",,32.66981585080808,-114.57722872495651,US/Arizona,,http://www.ycipta.org/stops/410,0,
461,411,"Avenue 3E @ 32nd Street",,32.67013196829701,-114.58145320415497,US/Arizona,,http://www.ycipta.org/stops/411,0,
462,412,"Avenue 3E - Across Palo Verde St",,32.67691704878238,-114.58148807287216,US/Arizona,,http://www.ycipta.org/stops/412,0,
463,413,"24th Street @ Avenue 3E",,32.68017689711014,-114.58238124847412,US/Arizona,,http://www.ycipta.org/stops/413,0,
464,414,"24th Street @ Avenue 2 5/10",,32.684142193744904,-114.59043323993683,US/Arizona,,http://www.ycipta.org/stops/414,0,
465,415,"24th Street @ Yuma Community Food Bank",,32.68428266801331,-114.59365725517273,US/Arizona,,http://www.ycipta.org/stops/415,0,
466,416,"24th Street - Across Melody Lane",,32.68426989763442,-114.59706366062164,US/Arizona,,http://www.ycipta.org/stops/416,0,
467,439,"8th Street @ Avenue C",,32.71320288901805,-114.66764330863953,US/Arizona,,http://www.ycipta.org/stops/439,0,
468,440,"County 8th Street @ Pritchard Avenue",,32.71312064879076,-114.67088341712952,US/Arizona,,http://www.ycipta.org/stops/440,0,
469,441,"County 8th Street @ Across Apache Lane",,32.713155015602666,-114.67732340097427,US/Arizona,,http://www.ycipta.org/stops/441,0,
470,442,"County 8th Street - Across Yavapai Lane",,32.71316459028779,-114.6796864271164,US/Arizona,,http://www.ycipta.org/stops/442,0,
471,443,"Hope Way @ County 8th Street",,32.71321091978183,-114.68892931938171,US/Arizona,,http://www.ycipta.org/stops/443,0,
472,444,"Hope Way @ Riverside Drive",,32.720567698426784,-114.68888103961945,US/Arizona,,http://www.ycipta.org/stops/444,0,
607,425,"Avenue C @ 16th Street",,32.69817256621099,-114.66761916875839,US/Arizona,,http://www.ycipta.org/stops/425,0,
606,547,"16th Street @ YPIC",,32.69857955775625,-114.66515958309174,US/Arizona,,http://www.ycipta.org/stops/547,0,
605,546,"16th Street @ 31st Drive",,32.698567770840945,-114.65768694877625,US/Arizona,,http://www.ycipta.org/stops/546,0,
604,545,"16th Street @ Arcadia Lane",,32.698567770840945,-114.65368509292603,US/Arizona,,http://www.ycipta.org/stops/545,0,
603,544,"16th Street @ Avenue B",,32.69860349837757,-114.65066492557526,US/Arizona,,http://www.ycipta.org/stops/544,0,
599,540,"Avenue B @ 4th Street",,32.72022723634728,-114.65059250593185,US/Arizona,,http://www.ycipta.org/stops/540,0,
483,420,"40th Street @ Foothills Blvd",,32.65594709105417,-114.41008150577545,US/Arizona,,http://www.ycipta.org/stops/420,0,
486,453,"US Highway 95 @ County 20 1/2 Street",,32.53046032128767,-114.78688359260559,US/Arizona,,http://www.ycipta.org/stops/453,0,
487,454,"County 22nd Street @ Walmart Outdoor Living",,32.5085583935704,-114.78397607803345,US/Arizona,,http://www.ycipta.org/stops/454,0,
488,455,"County 22nd Street @ Second Apartment Complex Entrance - Orgullo Del Sol",,32.5086217277798,-114.7807788848877,US/Arizona,,http://www.ycipta.org/stops/455,0,
489,456,"4th Avenue @ Las Brisas Blvd",,32.504296803559406,-114.77821469306946,US/Arizona,,http://www.ycipta.org/stops/456,0,
490,457,"4th Avenue @ Union Street",,32.49783617367035,-114.77804839611053,US/Arizona,,http://www.ycipta.org/stops/457,0,
548,511,"Foothills Boulevard @ 34th Street",,32.6669132652226,-114.40966844558716,US/Arizona,,http://www.ycipta.org/stops/511,0,
492,459,"4th Avenue @ Juan Sanchez Blvd",,32.49430706219938,-114.77811813354492,US/Arizona,,http://www.ycipta.org/stops/459,0,
493,460,"4th Avenue @ C Street",,32.49056967269515,-114.77810740470886,US/Arizona,,http://www.ycipta.org/stops/460,0,
494,461,"4th Avenue @ B Street  ",,32.488755218174425,-114.77807521820068,US/Arizona,,http://www.ycipta.org/stops/461,0,
495,462,"Urtuzuastegui Street @ Cesar Chavez Avenue",,32.48703122623922,-114.77891206741333,US/Arizona,,http://www.ycipta.org/stops/462,0,
497,464,"2nd Ave and B Street",,32.48787738913816,-114.78001713752747,US/Arizona,,http://www.ycipta.org/stops/464,0,
536,499,"7th Street @ State Street","El Centro Regional Bus Transfer Terminal",32.791604172923144,-115.55900037288666,US/Pacific,,http://www.ycipta.org/stops/499,0,
511,491,"US Highway 95 @ County 18th Street",,32.566671371214625,-114.782634973526,US/Arizona,,http://www.ycipta.org/stops/491,0,
506,451,"Aurora Drive @ 4th Street",,32.77841684674904,-115.55250942707062,US/Pacific,,http://www.ycipta.org/stops/451,0,
598,539,"3rd Street @ 24th Avenue",,32.72160906236088,-114.6485835313797,US/Arizona,,http://www.ycipta.org/stops/539,0,
612,430,"24th Street @ 33rd Street",,32.6837687079748,-114.65910315513611,US/Arizona,,http://www.ycipta.org/stops/430,0,
611,429,"24th Street @ Sonora Sunset",,32.6837814292704,-114.66477334499359,US/Arizona,,http://www.ycipta.org/stops/429,0,
610,428,"Avenue C @ 21st Lane",,32.687775298090955,-114.66761648654938,US/Arizona,,http://www.ycipta.org/stops/428,0,
609,427,"Avenue C @ 20th Street",,32.69092023928321,-114.66762185096741,US/Arizona,,http://www.ycipta.org/stops/427,0,
608,426,"Avenue C @ 18th Street",,32.694658311770795,-114.66762185096741,US/Arizona,,http://www.ycipta.org/stops/426,0,
616,550,"1st Street @ Gila Street",,32.72548692347244,-114.61660623550415,US/Arizona,,http://www.ycipta.org/stops/550,0,
613,431,"24th Street @ River Park Apartments",,32.68386124454519,-114.65138643980026,US/Arizona,,http://www.ycipta.org/stops/431,0,
602,543,"Avenue B @ 12th Street",,32.705537559424926,-114.65057373046875,US/Arizona,,http://www.ycipta.org/stops/543,0,
601,542,"Avenue B @ 8th Street",,32.712903998039465,-114.65059518814087,US/Arizona,,http://www.ycipta.org/stops/542,0,
600,541,"Avenue B @ Baird Lane",,32.718475190594,-114.65061128139496,US/Arizona,,http://www.ycipta.org/stops/541,0,
507,025,"4th Avenue @ 19th Street",,32.693179985583185,-114.62474673986435,US/Arizona,,http://www.ycipta.org/stops/025,0,
508,495,"Giss Parkway @ 7th Street",,32.71658698924852,-114.60905313491821,US/Arizona,,http://www.ycipta.org/stops/495,0,
509,471,"SR 186 @ Andrade Port of Entry",,32.71924758497245,-114.72739219665527,US/Arizona,,http://www.ycipta.org/stops/471,0,
510,498,"Centre Avenue Across Kwapa Apartments",,32.620449988314725,-114.76595163345337,US/Arizona,,http://www.ycipta.org/stops/498,0,
512,490,"Dillard's @ Imperial Valley Mall",,32.76493019237809,-115.53110003471375,US/Pacific,,http://www.ycipta.org/stops/490,0,
513,492,"US Highway 95 @ County 18th Street",,32.56672110162081,-114.78293001651764,US/Arizona,,http://www.ycipta.org/stops/492,0,
597,538,"3rd Street @ 20th Avenue",,32.72162820991505,-114.64442074298859,US/Arizona,,http://www.ycipta.org/stops/538,0,
596,537,"3rd Street @ 17th Avenue",,32.721621827397456,-114.6407300233841,US/Arizona,,http://www.ycipta.org/stops/537,0,
595,536,"3rd Street @ 15th Avenue",,32.72164182760453,-114.63826775550842,US/Arizona,,http://www.ycipta.org/stops/536,0,
594,535,"3rd Street @ 13th Avenue",,32.7216154448794,-114.63602006435394,US/Arizona,,http://www.ycipta.org/stops/535,0,
593,534,"3rd Street @ Avenue A",,32.72164735746511,-114.63335394859314,US/Arizona,,http://www.ycipta.org/stops/534,0,
592,533,"3rd Street @ 8th Avenue",,32.72164735746511,-114.6296364068985,US/Arizona,,http://www.ycipta.org/stops/533,0,
591,532,"3rd Street @ 6th Avenue",,32.72162820991505,-114.62719559669495,US/Arizona,,http://www.ycipta.org/stops/532,0,
590,531,"3rd Street @ 4th Avenue",,32.721621827397456,-114.62472662329674,US/Arizona,,http://www.ycipta.org/stops/531,0,
588,389,"16th Street @ Arizona Avenue",,32.69837366814765,-114.61559236049652,US/Arizona,,http://www.ycipta.org/stops/389,0,
589,530,"Giss Parkway @ 1st Avenue",,32.72153247210309,-114.62099969387054,US/Arizona,,http://www.ycipta.org/stops/530,0,
587,390,"Arizona Avenue A 18th Street",,32.69506461456621,-114.61590886116028,US/Arizona,,http://www.ycipta.org/stops/390,0,
586,391,"Arizona Avenue A 20th Street",,32.69143491072888,-114.61590886116028,US/Arizona,,http://www.ycipta.org/stops/391,0,
585,392,"Arizona Avenue A 22nd Street",,32.68781360771828,-114.61591422557831,US/Arizona,,http://www.ycipta.org/stops/392,0,
584,493,"4th Avenue Extension @ 32nd Street",,32.669247170446944,-114.62417006492615,US/Arizona,,http://www.ycipta.org/stops/493,0,
583,477,"32nd Street @ 8th Avenue",,32.66929537210176,-114.62856352329254,US/Arizona,,http://www.ycipta.org/stops/477,0,
582,476,"32nd Street @ Avenue A",,32.669314530880925,-114.63272631168365,US/Arizona,,http://www.ycipta.org/stops/476,0,
581,475,"Avenue A @ Kofa High School Driveway",,32.672472480161275,-114.63317960500717,US/Arizona,,http://www.ycipta.org/stops/475,0,
580,474,"Avenue A Across 28th Street",,32.67624973900985,-114.63319301605225,US/Arizona,,http://www.ycipta.org/stops/474,0,
579,473,"Avenue A Across Westridge Drive ",,32.67914882850291,-114.63323056697845,US/Arizona,,http://www.ycipta.org/stops/473,0,
538,501,"Fortuna Road @ 35th Place",,32.66395629891311,-114.44427967071533,US/Arizona,,http://www.ycipta.org/stops/501,0,
537,500,"Pacific Avenue @ 32nd Street",,32.669725840834424,-114.59858179092407,US/Arizona,,http://www.ycipta.org/stops/500,0,
549,512,"Foothills Boulevard @ South Frontage Road",,32.66832465524891,-114.40992057323456,US/Arizona,,http://www.ycipta.org/stops/512,0,
576,552,"AWC East Yuma Country Center Parking Lot",,32.64877709682253,-114.14305686950684,US/Arizona,,http://www.ycipta.org/stops/552,0,
551,514,"Foothills Boulevard @ Tiffany Lane",,32.66479933167623,-114.40992057323456,US/Arizona,,http://www.ycipta.org/stops/514,0,
552,515,"Foothills Boulevard @ 38th Place",,32.65874464712479,-114.40997958183289,US/Arizona,,http://www.ycipta.org/stops/515,0,
553,516,"40th Street @ Cassidy Drive",,32.655959865481755,-114.41424429416656,US/Arizona,,http://www.ycipta.org/stops/516,0,
554,517,"40th Street @ Avenue 12 1/2E",,32.65595347826821,-114.41853046417236,US/Arizona,,http://www.ycipta.org/stops/517,0,
555,518,"40th Street @ Avenue 12E",,32.655915154977166,-114.42704916000366,US/Arizona,,http://www.ycipta.org/stops/518,0,
556,519,"40th Street @ Scottsdale Drive",,32.655915154977166,-114.43572342395782,US/Arizona,,http://www.ycipta.org/stops/519,0,
557,520,"Fortuna Road @ 40th Street",,32.65616425607516,-114.44401144981384,US/Arizona,,http://www.ycipta.org/stops/520,0,
558,521,"Fortuna Road @ 38th Place",,32.660066749322766,-114.44400072097778,US/Arizona,,http://www.ycipta.org/stops/521,0,
559,522,"Fortuna Road @ 35th Place",,32.66432484506582,-114.44401144981384,US/Arizona,,http://www.ycipta.org/stops/522,0,
560,523,"Advanced Call Center Technologies @ San Luis Plaza Drive",,32.489673762068655,-114.78563904762268,US/Arizona,,http://www.ycipta.org/stops/523,0,
561,235,"8th Street @ Avenue C",,32.71300182050078,-114.6670988202095,US/Arizona,,http://www.ycipta.org/stops/235,0,
562,236,"8th Street @ Date Avenue",,32.712976215015026,-114.66091632843018,US/Arizona,,http://www.ycipta.org/stops/236,0,
563,237,"8th Street @ Lazy 8 Mobile Home Park",,32.712992245798176,-114.65675890445709,US/Arizona,,http://www.ycipta.org/stops/237,0,
564,238,"8th Street @ Avenue B",,32.71296718789628,-114.65019822120667,US/Arizona,,http://www.ycipta.org/stops/238,0,
565,239,"8th Street @ Dora Avenue",,32.712976215015026,-114.64532732963562,US/Arizona,,http://www.ycipta.org/stops/239,0,
566,240,"8th Street @ Magnolia Avenue",,32.71299862893336,-114.64161515235901,US/Arizona,,http://www.ycipta.org/stops/240,0,
567,241,"8th Street @ 14th Avenue",,32.713005012068095,-114.63737189769745,US/Arizona,,http://www.ycipta.org/stops/241,0,
568,242,"Avenue A @ 8th Street",,32.71289497091339,-114.6333110332489,US/Arizona,,http://www.ycipta.org/stops/242,0,
569,243,"Avenue A @ 10th Street",,32.70928995043372,-114.63333785533905,US/Arizona,,http://www.ycipta.org/stops/243,0,
570,244,"Avenue A @ 12th Street",,32.705618810226845,-114.6333646774292,US/Arizona,,http://www.ycipta.org/stops/244,0,
571,245,"Avenue A @ 14th Street",,32.70206364864147,-114.63337272405624,US/Arizona,,http://www.ycipta.org/stops/245,0,
572,246,"Avenue A @ 16th Street",,32.698265137000014,-114.63342368602753,US/Arizona,,http://www.ycipta.org/stops/246,0,
573,247,"Avenue A @ 18th Street",,32.69475763040266,-114.63337540626526,US/Arizona,,http://www.ycipta.org/stops/247,0,
574,248,"Avenue A @ 20th Place",,32.68983920585112,-114.63337004184723,US/Arizona,,http://www.ycipta.org/stops/248,0,
575,249,"Avenue A Across 22nd Street",,32.68759013466055,-114.63337272405624,US/Arizona,,http://www.ycipta.org/stops/249,0,
617,551,"21st Drive @ 32nd Street",,32.66961746285805,-114.64596033096313,US/Arizona,,http://www.ycipta.org/stops/551,0,
618,513,"21st Drive @ 32nd Street",,32.66984458880784,-114.64574575424194,US/Arizona,,http://www.ycipta.org/stops/513,0,
619,138,"US Highway 95 @ County 22nd Street",,32.5084588682941,-114.78674411773682,US/Arizona,,http://www.ycipta.org/stops/138,0,
620,139,"US Highway 95 @ Piceno Drive",,32.504839692494016,-114.78680849075317,US/Arizona,,http://www.ycipta.org/stops/139,0,
621,140,"US Highway 95 @ Los Oros Street",,32.50130180735487,-114.7866690158844,US/Arizona,,http://www.ycipta.org/stops/140,0,
622,141,"US Highway 95 @ Beach Street",,32.498252418714934,-114.78567659854889,US/Arizona,,http://www.ycipta.org/stops/141,0,
623,554,"Juan Sanchez @ 4th Avenue",,32.49410797999082,-114.77779626846313,US/Arizona,,http://www.ycipta.org/stops/554,0,
625,253,"Avenue B @ County 16th Street",,32.59678192800158,-114.64977979660034,US/Arizona,,http://www.ycipta.org/stops/253,0,
626,254,"County 16th Street Across Paso Desconso Avenue",,32.59667639863156,-114.65452194213867,US/Arizona,,http://www.ycipta.org/stops/254,0,
627,255,"County 16th Street @ Rincon De Espana",,32.59667327348972,-114.6613883972168,US/Arizona,,http://www.ycipta.org/stops/255,0,
628,555,"4th Avenue @ 16th Street",,32.69884290423773,-114.62452948093414,US/Arizona,,http://www.ycipta.org/stops/555,0,
629,556,"4th Avenue @ 14th Street",,32.70235730835496,-114.62453216314316,US/Arizona,,http://www.ycipta.org/stops/556,0,
630,557,"4th Avenue @ 12th Street",,32.70600882233383,-114.62453484535217,US/Arizona,,http://www.ycipta.org/stops/557,0,
631,558,"4th Avenue @ 10th Street",,32.7096538035103,-114.62453216314316,US/Arizona,,http://www.ycipta.org/stops/558,0,
632,559,"4th Avenue @ 8th Street",,32.71330182732843,-114.6244490146637,US/Arizona,,http://www.ycipta.org/stops/559,0,
633,560,"4th Avenue @ 5th Street",,32.718092225189594,-114.6244490146637,US/Arizona,,http://www.ycipta.org/stops/560,0,
634,561,"4th Avenue @ 3rd Street/Giss Parkway",,32.72181330272669,-114.62444365024567,US/Arizona,,http://www.ycipta.org/stops/561,0,
635,562,"1st Street @ Gila Street",,32.72535871328195,-114.61661696434021,US/Arizona,,http://www.ycipta.org/stops/562,0,
636,524,"24th Street @ Pacific Avenue",,32.684218816100525,-114.59944546222687,US/Arizona,,http://www.ycipta.org/stops/524,0,
637,525,"24th Street @ Melody Lane",,32.68405599351626,-114.59691613912582,US/Arizona,,http://www.ycipta.org/stops/525,0,
638,526,"24th Street @ Engler Avenue",,32.684071956527845,-114.59429025650024,US/Arizona,,http://www.ycipta.org/stops/526,0,
639,527,"24th Street Across from Avenue 2 1/2",,32.68280767717417,-114.58919942378998,US/Arizona,,http://www.ycipta.org/stops/527,0,
640,528,"Avenue 3E @ 24th Street",,32.679538346572585,-114.58188235759735,US/Arizona,,http://www.ycipta.org/stops/528,0,
641,529,"Avenue 3E @ Palo Verde Street",,32.67684361302282,-114.58179116249084,US/Arizona,,http://www.ycipta.org/stops/529,0,
642,480,"32nd Street @ Avenue 3E",,32.669509084750224,-114.58107233047485,US/Arizona,,http://www.ycipta.org/stops/480,0,
643,481,"32nd Street @ Avenue 3 1/2E",,32.66959036834341,-114.57244634628296,US/Arizona,,http://www.ycipta.org/stops/481,0,
644,482,"32nd Street @ Avenue 4E",,32.66972963675336,-114.56382304430008,US/Arizona,,http://www.ycipta.org/stops/482,0,
645,483,"32nd Street @ Roadrunner Lane",,32.66981904391962,-114.55525606870651,US/Arizona,,http://www.ycipta.org/stops/483,0,
646,484,"32nd Street @ Avenue 5E",,32.66988929234462,-114.54666495323181,US/Arizona,,http://www.ycipta.org/stops/484,0,
647,485,"32nd Street @ Avenue 5 1/2E",,32.669886099235605,-114.53823208808899,US/Arizona,,http://www.ycipta.org/stops/485,0,
648,486,"32nd Street @ Country Roads Blvd (Country Roads RV Park)",,32.66988290612646,-114.533731341362,US/Arizona,,http://www.ycipta.org/stops/486,0,
649,487,"32nd Street @ Avenue 6E",,32.66991483721277,-114.52974021434784,US/Arizona,,http://www.ycipta.org/stops/487,0,
